{"city": "Peabody, MA, USA", "lat": 42.536457, "lng":-70.985786}
{"city": "Northampton, MA, USA", "lat": 42.328674, "lng":	-72.664658}
{"city": "Newton, MA, USA", "lat":	42.341042, "lng":	-71.217133}
{"city": "Newburyport, MA, USA", "lat":	42.810356, "lng":	-70.893875}
{"city": "New Bedford, MA, USA", "lat":	41.638409, "lng":	-70.941208}
{"city": "Medford, MA, USA", "lat":	42.419331, "lng":	-71.119720}
{"city": "Malden, MA, USA", "lat":	42.429752, "lng":	-71.071022}
{"city": "Leominster, MA, USA", "lat":	42.525482, "lng":	-71.764183}
{"city": "Lawrence, MA, USA", "lat":	42.701283, "lng":	-71.175682}
{"city": "Holyoke, MA, USA", "lat":	42.203217, "lng":	-72.625481}
{"city": "Greenfield, MA, USA", "lat":	42.587334, "lng":	-72.603416}
{"city": "Framingham, MA, USA", "lat":	42.280418, "lng":	-71.423233}
{"city": "Fitchburg, MA, USA", "lat":	42.586716, "lng":	-71.814468}
{"city": "Everett, MA, USA", "lat":	42.408623, "lng":	-71.056999}
{"city": "Chelsea, MA, USA", "lat":	42.392925, "lng":	-71.037109}
{"city": "Amesbury, MA, USA", "lat":	42.856842, "lng":	-70.963440}
{"city": "Takoma Park, MD, USA", "lat":	38.981544, "lng":	-77.010674}
{"city": "Salisbury, MD, USA", "lat":	38.363350, "lng":	-75.605919}
{"city": "Rockville, MD, USA", "lat":	39.086437, "lng":	-77.161263}
{"city": "Hagerstown, MD, USA", "lat":	39.644207, "lng":	-77.731430}
{"city": "Greenbelt, MD, USA", "lat":	38.998318, "lng":	-76.896332}
{"city": "Cumberland, MD, USA", "lat":	39.649109, "lng":   -78.769714}
{"city": "Beaumont, TX, USA", "lat":	30.081987, "lng": 	-94.118637}
{"city": "Rock Falls, IL, USA", "lat":		41.781605, "lng": 	-89.687027}
{"city": "Oxnard, CA, USA", "lat":		34.196411, "lng": 	-119.170898}
{"city": "Leawood, KS, USA", "lat":		38.966675, "lng": 	-94.616898}
{"city": "Perrysburg, OH, USA", "lat":		41.568916, "lng": 	-83.640564}
{"city": "Santa Fe, NM, USA", "lat":		35.691544, "lng": 	-105.944183}
{"city": "Post Falls, ID, USA", "lat":		47.712257, "lng": 	-116.948364}
{"city": "Lubbock, TX, USA", "lat":		33.576698, "lng": 	-101.855072}
{"city": "Richfield, MN, USA", "lat":		44.883244, "lng": 	-93.286240}
{"city": "Allentown, PA, USA", "lat":		40.613953, "lng": 	-75.477791}
{"city": "Seminole, TX, USA", "lat":		32.719276, "lng": 	-102.644661}
{"city": "Georgetown, SC, USA", "lat":		33.373474, "lng": 	-79.288521}
{"city": "Greenwood, IN, USA", "lat":		39.614944, "lng": 	-86.105606}
{"city": "Chesapeake, VA, USA", "lat":		36.779591, "lng": 	-76.288376}
{"city": "Spanish Fork, UT, USA", "lat":		40.114956, "lng": 	-111.654922}
{"city": "Corpus Christi, TX, USA", "lat":		27.800583, "lng": 	-97.396378}
{"city": "Wooster, OH, USA", "lat":		40.818714, "lng": 	-81.946564}
{"city": "Pittsburgh, PA, USA", "lat":		40.440624, "lng": 	-79.995888}
{"city": "Newport, TN, USA", "lat":		35.964279, "lng": 	-83.182152}
{"city": "Baytown, TX, USA", "lat":		29.733303, "lng": 	-94.978134}
{"city": "Lambertville, NJ, USA", "lat":		40.365940, "lng": 	-74.942947}
{"city": "Vallejo, CA, USA", "lat":		38.104088, "lng": 	-122.256638}
{"city": "Oklahoma City, OK USA", "lat":		35.481918, "lng": 	-97.508469}
{"city": "Highland Park, IL USA", "lat":		42.190166, "lng": 	-87.786697}
{"city": "Mentor, OH, USA", "lat":		41.659576, "lng": 	-81.372299}
{"city": "St Joseph, MO, USA", "lat":		39.766853, "lng": 	-94.834152}
{"city": "McGehee, AR, USA", "lat":		33.630165, "lng": 	-91.396660}
{"city": "Rolla, MO, USA", "lat":		37.951424, "lng": 	-91.768959}